[{"id": "Zyfo5HuK1i1YZCv3U-GvwQ", "alias": "the-pizza-lady-pawcatuck", "name": "The Pizza Lady", "image_url": "https://s3-media1.fl.yelpcdn.com/bphoto/16ZFRx3lxJ54o0_eoPFdLw/o.jpg", "is_closed": false, "url": "https://www.yelp.com/biz/the-pizza-lady-pawcatuck?adjust_creative=WGZpLYsyc342REtByXO5Mw&utm_campaign=yelp_api_v3&utm_medium=api_v3_business_search&utm_source=WGZpLYsyc342REtByXO5Mw", "review_count": 37, "categories": [{"alias": "pizza", "title": "Pizza"}, {"alias": "newamerican", "title": "American (New)"}, {"alias": "italian", "title": "Italian"}], "rating": 4.0, "coordinates": {"latitude": 41.379569, "longitude": -71.836204}, "transactions": ["delivery"], "price": "$", "location": {"address1": "50 Liberty St", "address2": null, "address3": null, "city": "Pawcatuck", "zip_code": "06379", "country": "US", "state": "CT", "display_address": ["50 Liberty St", "Pawcatuck, CT 06379"]}, "phone": "+18605991113", "display_phone": "(860) 599-1113", "distance": 1169.7043815221884}, {"id": "kNOjDM10zI0RvNEmThKmrA", "alias": "pizzaplace-westerly-2", "name": "PizzaPlace", "image_url": "https://s3-media2.fl.yelpcdn.com/bphoto/S6ByHQFlY3wYj-Rj737mwA/o.jpg", "is_closed": false, "url": "https://www.yelp.com/biz/pizzaplace-westerly-2?adjust_creative=WGZpLYsyc342REtByXO5Mw&utm_campaign=yelp_api_v3&utm_medium=api_v3_business_search&utm_source=WGZpLYsyc342REtByXO5Mw", "review_count": 121, "categories": [{"alias": "pizza", "title": "Pizza"}], "rating": 4.0, "coordinates": {"latitude": 41.376953, "longitude": -71.830095}, "transactions": ["delivery"], "price": "$$", "location": {"address1": "43 Broad St", "address2": "", "address3": "", "city": "Westerly", "zip_code": "02891", "country": "US", "state": "RI", "display_address": ["43 Broad St", "Westerly, RI 02891"]}, "phone": "+14013481803", "display_phone": "(401) 348-1803", "distance": 1657.9973413671723}, {"id": "EDSQSFjQrrD56led7AvTpQ", "alias": "mr-pizza-westerly", "name": "Mr. Pizza", "image_url": "https://s3-media1.fl.yelpcdn.com/bphoto/_-FNJL51wQ8fLiKwEUaePQ/o.jpg", "is_closed": false, "url": "https://www.yelp.com/biz/mr-pizza-westerly?adjust_creative=WGZpLYsyc342REtByXO5Mw&utm_campaign=yelp_api_v3&utm_medium=api_v3_business_search&utm_source=WGZpLYsyc342REtByXO5Mw", "review_count": 18, "categories": [{"alias": "pizza", "title": "Pizza"}, {"alias": "salad", "title": "Salad"}], "rating": 4.5, "coordinates": {"latitude": 41.36617, "longitude": -71.83040319999999}, "transactions": ["delivery"], "location": {"address1": "49 Beach St", "address2": null, "address3": "", "city": "Westerly", "zip_code": "02891", "country": "US", "state": "RI", "display_address": ["49 Beach St", "Westerly, RI 02891"]}, "phone": "+14015967698", "display_phone": "(401) 596-7698", "distance": 2045.4936016659278}, {"id": "5QQdidOV8ye4eZksu3k45A", "alias": "nanas-bakery-and-pizza-westerly", "name": "Nana's Bakery & Pizza", "image_url": "https://s3-media4.fl.yelpcdn.com/bphoto/pq8-t7Qgg6r7sSqJQPYtSQ/o.jpg", "is_closed": false, "url": "https://www.yelp.com/biz/nanas-bakery-and-pizza-westerly?adjust_creative=WGZpLYsyc342REtByXO5Mw&utm_campaign=yelp_api_v3&utm_medium=api_v3_business_search&utm_source=WGZpLYsyc342REtByXO5Mw", "review_count": 7, "categories": [{"alias": "bakeries", "title": "Bakeries"}, {"alias": "pizza", "title": "Pizza"}], "rating": 5.0, "coordinates": {"latitude": 41.37971, "longitude": -71.82931}, "transactions": [], "location": {"address1": "82 High St Grd Flr", "address2": null, "address3": "", "city": "Westerly", "zip_code": "02891", "country": "US", "state": "RI", "display_address": ["82 High St Grd Flr", "Westerly, RI 02891"]}, "phone": "+14012133911", "display_phone": "(401) 213-3911", "distance": 1733.837857721562}, {"id": "zgNte7hf2UZsXpTBIoJkJQ", "alias": "casa-della-luce-westerly", "name": "Casa Della Luce", "image_url": "https://s3-media1.fl.yelpcdn.com/bphoto/oAIn8pPp5TzngE06YV1aVw/o.jpg", "is_closed": false, "url": "https://www.yelp.com/biz/casa-della-luce-westerly?adjust_creative=WGZpLYsyc342REtByXO5Mw&utm_campaign=yelp_api_v3&utm_medium=api_v3_business_search&utm_source=WGZpLYsyc342REtByXO5Mw", "review_count": 143, "categories": [{"alias": "italian", "title": "Italian"}, {"alias": "pizza", "title": "Pizza"}], "rating": 4.0, "coordinates": {"latitude": 41.360386, "longitude": -71.811803}, "transactions": ["delivery"], "price": "$$", "location": {"address1": "105 Franklin St", "address2": "", "address3": "", "city": "Westerly", "zip_code": "02891", "country": "US", "state": "RI", "display_address": ["105 Franklin St", "Westerly, RI 02891"]}, "phone": "+14016374575", "display_phone": "(401) 637-4575", "distance": 3694.928666290649}, {"id": "W8vuHMSeNwyUvRvSx86GDw", "alias": "main-street-pizza-pawcatuck", "name": "Main Street Pizza", "image_url": "https://s3-media2.fl.yelpcdn.com/bphoto/4SIz2T4iLJZmEB5ozAsuSg/o.jpg", "is_closed": false, "url": "https://www.yelp.com/biz/main-street-pizza-pawcatuck?adjust_creative=WGZpLYsyc342REtByXO5Mw&utm_campaign=yelp_api_v3&utm_medium=api_v3_business_search&utm_source=WGZpLYsyc342REtByXO5Mw", "review_count": 12, "categories": [{"alias": "pizza", "title": "Pizza"}, {"alias": "italian", "title": "Italian"}], "rating": 4.0, "coordinates": {"latitude": 41.369555, "longitude": -71.861156}, "transactions": [], "location": {"address1": "163 South Broad St", "address2": null, "address3": "", "city": "Pawcatuck", "zip_code": "06379", "country": "US", "state": "CT", "display_address": ["163 South Broad St", "Pawcatuck, CT 06379"]}, "phone": "+18604955720", "display_phone": "(860) 495-5720", "distance": 1281.4213452756787}, {"id": "F86I9r5zghCy-FDa2IkWnA", "alias": "christos-pizza-pawcatuck-2", "name": "Christo's Pizza", "image_url": "https://s3-media4.fl.yelpcdn.com/bphoto/PnLjkdhXhA0Bcg6umjU5Pg/o.jpg", "is_closed": false, "url": "https://www.yelp.com/biz/christos-pizza-pawcatuck-2?adjust_creative=WGZpLYsyc342REtByXO5Mw&utm_campaign=yelp_api_v3&utm_medium=api_v3_business_search&utm_source=WGZpLYsyc342REtByXO5Mw", "review_count": 11, "categories": [{"alias": "italian", "title": "Italian"}, {"alias": "pizza", "title": "Pizza"}], "rating": 3.0, "coordinates": {"latitude": 41.375489, "longitude": -71.847473}, "transactions": ["delivery"], "location": {"address1": "37 S Broad St", "address2": null, "address3": null, "city": "Pawcatuck", "zip_code": "06379", "country": "US", "state": "CT", "display_address": ["37 S Broad St", "Pawcatuck, CT 06379"]}, "phone": "+18605993000", "display_phone": "(860) 599-3000", "distance": 287.1918689956181}, {"id": "wYZ4vvAdsnPDK-XIKEAYlw", "alias": "stone-face-ovens-westerly", "name": "Stone Face Ovens", "image_url": "https://s3-media4.fl.yelpcdn.com/bphoto/GrcYdqTg45Ike6Ll18tiyA/o.jpg", "is_closed": false, "url": "https://www.yelp.com/biz/stone-face-ovens-westerly?adjust_creative=WGZpLYsyc342REtByXO5Mw&utm_campaign=yelp_api_v3&utm_medium=api_v3_business_search&utm_source=WGZpLYsyc342REtByXO5Mw", "review_count": 2, "categories": [{"alias": "pizza", "title": "Pizza"}, {"alias": "foodtrucks", "title": "Food Trucks"}], "rating": 4.5, "coordinates": {"latitude": 41.385328, "longitude": -71.832334}, "transactions": [], "location": {"address1": "65 Canal St", "address2": null, "address3": "", "city": "Westerly", "zip_code": "02891", "country": "US", "state": "RI", "display_address": ["65 Canal St", "Westerly, RI 02891"]}, "phone": "+14015951224", "display_phone": "(401) 595-1224", "distance": 1714.9017241922434}, {"id": "CLOJF8y35VDcUbSQI3rF0A", "alias": "pizza-vita-westerly", "name": "Pizza Vita", "image_url": "https://s3-media1.fl.yelpcdn.com/bphoto/TLQZb3TZq2Ttd6eTada3Og/o.jpg", "is_closed": false, "url": "https://www.yelp.com/biz/pizza-vita-westerly?adjust_creative=WGZpLYsyc342REtByXO5Mw&utm_campaign=yelp_api_v3&utm_medium=api_v3_business_search&utm_source=WGZpLYsyc342REtByXO5Mw", "review_count": 28, "categories": [{"alias": "pizza", "title": "Pizza"}, {"alias": "salad", "title": "Salad"}, {"alias": "wraps", "title": "Wraps"}], "rating": 4.0, "coordinates": {"latitude": 41.364714, "longitude": -71.830466}, "transactions": ["delivery", "pickup"], "price": "$$", "location": {"address1": "55 Beach St", "address2": "Ste 12", "address3": null, "city": "Westerly", "zip_code": "02891", "country": "US", "state": "RI", "display_address": ["55 Beach St", "Ste 12", "Westerly, RI 02891"]}, "phone": "+14013487036", "display_phone": "(401) 348-7036", "distance": 2143.543493754896}, {"id": "UbImQIb4N-RgPqTSjq7VMA", "alias": "longo-pizzeria-westerly", "name": "Longo Pizzeria", "image_url": "https://s3-media3.fl.yelpcdn.com/bphoto/HMFdWGzTN2onQ87X2ORn5w/o.jpg", "is_closed": false, "url": "https://www.yelp.com/biz/longo-pizzeria-westerly?adjust_creative=WGZpLYsyc342REtByXO5Mw&utm_campaign=yelp_api_v3&utm_medium=api_v3_business_search&utm_source=WGZpLYsyc342REtByXO5Mw", "review_count": 9, "categories": [{"alias": "pizza", "title": "Pizza"}, {"alias": "sportsbars", "title": "Sports Bars"}], "rating": 4.0, "coordinates": {"latitude": 41.379778, "longitude": -71.829163}, "transactions": [], "price": "$$", "location": {"address1": "66-76 High St", "address2": "", "address3": "", "city": "Westerly", "zip_code": "02891", "country": "US", "state": "RI", "display_address": ["66-76 High St", "Westerly, RI 02891"]}, "phone": "", "display_phone": "", "distance": 1751.5917678027827}, {"id": "qpbOpYQmmijjM-tZl-l4ow", "alias": "providence-coal-fired-pizza-westerly", "name": "Providence Coal Fired Pizza", "image_url": "https://s3-media2.fl.yelpcdn.com/bphoto/MB34PCrx5LLk681fYQku1Q/o.jpg", "is_closed": false, "url": "https://www.yelp.com/biz/providence-coal-fired-pizza-westerly?adjust_creative=WGZpLYsyc342REtByXO5Mw&utm_campaign=yelp_api_v3&utm_medium=api_v3_business_search&utm_source=WGZpLYsyc342REtByXO5Mw", "review_count": 61, "categories": [{"alias": "pizza", "title": "Pizza"}, {"alias": "italian", "title": "Italian"}, {"alias": "sandwiches", "title": "Sandwiches"}], "rating": 3.5, "coordinates": {"latitude": 41.3681255687374, "longitude": -71.8187813088298}, "transactions": ["delivery", "pickup"], "price": "$$", "location": {"address1": "162 Granite St", "address2": "", "address3": null, "city": "Westerly", "zip_code": "02891", "country": "US", "state": "RI", "display_address": ["162 Granite St", "Westerly, RI 02891"]}, "phone": "+14015961842", "display_phone": "(401) 596-1842", "distance": 2790.6538907009744}, {"id": "RVUt9RkY4IbNhD2Mq-GaPw", "alias": "limiros-pizza-and-catering-westerly", "name": "Limiro's Pizza & Catering", "image_url": "https://s3-media1.fl.yelpcdn.com/bphoto/ND-fmgEvfvWyM9JKGp_zNA/o.jpg", "is_closed": false, "url": "https://www.yelp.com/biz/limiros-pizza-and-catering-westerly?adjust_creative=WGZpLYsyc342REtByXO5Mw&utm_campaign=yelp_api_v3&utm_medium=api_v3_business_search&utm_source=WGZpLYsyc342REtByXO5Mw", "review_count": 6, "categories": [{"alias": "pizza", "title": "Pizza"}, {"alias": "salad", "title": "Salad"}, {"alias": "wraps", "title": "Wraps"}], "rating": 5.0, "coordinates": {"latitude": 41.38701915524335, "longitude": -71.82564479999999}, "transactions": ["delivery", "pickup"], "price": "$", "location": {"address1": "24 Pierce St", "address2": null, "address3": null, "city": "Westerly", "zip_code": "02891", "country": "US", "state": "RI", "display_address": ["24 Pierce St", "Westerly, RI 02891"]}, "phone": "+14013155503", "display_phone": "(401) 315-5503", "distance": 2292.9942032939894}, {"id": "muJEa-bjMNA5dtNmpQOXQw", "alias": "vetranos-restaurant-westerly", "name": "Vetrano's Restaurant", "image_url": "https://s3-media2.fl.yelpcdn.com/bphoto/m7ydGmwC-XGXbhPGXCUYSQ/o.jpg", "is_closed": false, "url": "https://www.yelp.com/biz/vetranos-restaurant-westerly?adjust_creative=WGZpLYsyc342REtByXO5Mw&utm_campaign=yelp_api_v3&utm_medium=api_v3_business_search&utm_source=WGZpLYsyc342REtByXO5Mw", "review_count": 119, "categories": [{"alias": "italian", "title": "Italian"}, {"alias": "pizza", "title": "Pizza"}, {"alias": "bars", "title": "Bars"}], "rating": 3.5, "coordinates": {"latitude": 41.370545, "longitude": -71.819344}, "transactions": ["delivery"], "price": "$$", "location": {"address1": "130 Granite St", "address2": "Ste F", "address3": "", "city": "Westerly", "zip_code": "02891", "country": "US", "state": "RI", "display_address": ["130 Granite St", "Ste F", "Westerly, RI 02891"]}, "phone": "+14013485050", "display_phone": "(401) 348-5050", "distance": 2658.5903631918372}, {"id": "1qM3bO2zfae-3axjK9wo2w", "alias": "midway-pizza-house-westerly", "name": "Midway Pizza House", "image_url": "https://s3-media2.fl.yelpcdn.com/bphoto/rotbIhYGxcgNThVTPIRxYw/o.jpg", "is_closed": false, "url": "https://www.yelp.com/biz/midway-pizza-house-westerly?adjust_creative=WGZpLYsyc342REtByXO5Mw&utm_campaign=yelp_api_v3&utm_medium=api_v3_business_search&utm_source=WGZpLYsyc342REtByXO5Mw", "review_count": 22, "categories": [{"alias": "pizza", "title": "Pizza"}], "rating": 3.0, "coordinates": {"latitude": 41.3738145, "longitude": -71.8310995}, "transactions": ["delivery"], "price": "$", "location": {"address1": "125 Main St", "address2": "", "address3": "", "city": "Westerly", "zip_code": "02891", "country": "US", "state": "RI", "display_address": ["125 Main St", "Westerly, RI 02891"]}, "phone": "+14015961357", "display_phone": "(401) 596-1357", "distance": 1586.6846726188894}, {"id": "ptDQh4fgys1UXXdpnYNTGQ", "alias": "marios-northend-pizzaria-westerly", "name": "Mario's Northend Pizzaria", "image_url": "https://s3-media3.fl.yelpcdn.com/bphoto/gIeYKhF_kF4nxqu6srG9lA/o.jpg", "is_closed": false, "url": "https://www.yelp.com/biz/marios-northend-pizzaria-westerly?adjust_creative=WGZpLYsyc342REtByXO5Mw&utm_campaign=yelp_api_v3&utm_medium=api_v3_business_search&utm_source=WGZpLYsyc342REtByXO5Mw", "review_count": 23, "categories": [{"alias": "pizza", "title": "Pizza"}, {"alias": "italian", "title": "Italian"}], "rating": 3.5, "coordinates": {"latitude": 41.38323, "longitude": -71.82628}, "transactions": ["delivery"], "price": "$$", "location": {"address1": "61 Friendship St", "address2": "", "address3": "", "city": "Westerly", "zip_code": "02891", "country": "US", "state": "RI", "display_address": ["61 Friendship St", "Westerly, RI 02891"]}, "phone": "+14015963883", "display_phone": "(401) 596-3883", "distance": 2056.917062973759}, {"id": "K-J1GXPvYtLMZDhT97eQBg", "alias": "longo-ristorante-and-pizzeria-westerly", "name": "Longo Ristorante & Pizzeria", "image_url": "https://s3-media2.fl.yelpcdn.com/bphoto/taf49q6moif8MyJrAxkaCg/o.jpg", "is_closed": false, "url": "https://www.yelp.com/biz/longo-ristorante-and-pizzeria-westerly?adjust_creative=WGZpLYsyc342REtByXO5Mw&utm_campaign=yelp_api_v3&utm_medium=api_v3_business_search&utm_source=WGZpLYsyc342REtByXO5Mw", "review_count": 56, "categories": [{"alias": "italian", "title": "Italian"}, {"alias": "bars", "title": "Bars"}], "rating": 4.0, "coordinates": {"latitude": 41.379771, "longitude": -71.829123}, "transactions": ["delivery"], "price": "$$", "location": {"address1": "84 High St", "address2": "", "address3": "", "city": "Westerly", "zip_code": "02891", "country": "US", "state": "RI", "display_address": ["84 High St", "Westerly, RI 02891"]}, "phone": "+14013150881", "display_phone": "(401) 315-0881", "distance": 1751.562612151568}, {"id": "HB6DPAR6s7QA0a0ZDFk8Fw", "alias": "ritaccos-market-westerly", "name": "Ritacco's Market", "image_url": "https://s3-media3.fl.yelpcdn.com/bphoto/Psznanfc3KhVXeueRM4ilw/o.jpg", "is_closed": false, "url": "https://www.yelp.com/biz/ritaccos-market-westerly?adjust_creative=WGZpLYsyc342REtByXO5Mw&utm_campaign=yelp_api_v3&utm_medium=api_v3_business_search&utm_source=WGZpLYsyc342REtByXO5Mw", "review_count": 7, "categories": [{"alias": "grocery", "title": "Grocery"}, {"alias": "italian", "title": "Italian"}, {"alias": "pizza", "title": "Pizza"}], "rating": 5.0, "coordinates": {"latitude": 41.383861, "longitude": -71.815867}, "transactions": ["delivery"], "price": "$$", "location": {"address1": "84 Oak St", "address2": "", "address3": "", "city": "Westerly", "zip_code": "02891", "country": "US", "state": "RI", "display_address": ["84 Oak St", "Westerly, RI 02891"]}, "phone": "+14015961835", "display_phone": "(401) 596-1835", "distance": 2932.566994034299}, {"id": "_iYvpGfCwqMa3iMMIypT1Q", "alias": "supreme-cheese-pizzeria-and-ristorante-westerly-2", "name": "Supreme Cheese Pizzeria & Ristorante", "image_url": "https://s3-media4.fl.yelpcdn.com/bphoto/22yh-89rfTe7kZ_7s43N7Q/o.jpg", "is_closed": false, "url": "https://www.yelp.com/biz/supreme-cheese-pizzeria-and-ristorante-westerly-2?adjust_creative=WGZpLYsyc342REtByXO5Mw&utm_campaign=yelp_api_v3&utm_medium=api_v3_business_search&utm_source=WGZpLYsyc342REtByXO5Mw", "review_count": 44, "categories": [{"alias": "pizza", "title": "Pizza"}, {"alias": "newamerican", "title": "American (New)"}, {"alias": "burgers", "title": "Burgers"}], "rating": 3.5, "coordinates": {"latitude": 41.36834, "longitude": -71.81974}, "transactions": ["delivery"], "price": "$$", "location": {"address1": "157 Granite St", "address2": "", "address3": "", "city": "Westerly", "zip_code": "02891", "country": "US", "state": "RI", "display_address": ["157 Granite St", "Westerly, RI 02891"]}, "phone": "+14015961001", "display_phone": "(401) 596-1001", "distance": 2702.987120358425}, {"id": "WIW3FD4EJDFFe3Qkfde6KQ", "alias": "hilltop-cafe-westerly-3", "name": "Hilltop Cafe", "image_url": "https://s3-media4.fl.yelpcdn.com/bphoto/Ph-g-atXmAeaQcHKUolw4w/o.jpg", "is_closed": false, "url": "https://www.yelp.com/biz/hilltop-cafe-westerly-3?adjust_creative=WGZpLYsyc342REtByXO5Mw&utm_campaign=yelp_api_v3&utm_medium=api_v3_business_search&utm_source=WGZpLYsyc342REtByXO5Mw", "review_count": 16, "categories": [{"alias": "pizza", "title": "Pizza"}, {"alias": "salad", "title": "Salad"}], "rating": 3.5, "coordinates": {"latitude": 41.38136394732243, "longitude": -71.83181869673648}, "transactions": ["delivery"], "price": "$$", "location": {"address1": "23 Canal St", "address2": "", "address3": null, "city": "Westerly", "zip_code": "02891", "country": "US", "state": "RI", "display_address": ["23 Canal St", "Westerly, RI 02891"]}, "phone": "+18309978922", "display_phone": "(830) 997-8922", "distance": 1574.1156335107753}, {"id": "Lx6EeL5mwVtNdBf9uUEVQA", "alias": "dominos-pizza-westerly", "name": "Domino's Pizza", "image_url": "https://s3-media2.fl.yelpcdn.com/bphoto/2UoGpRc9envmJ5vjsr-2ew/o.jpg", "is_closed": false, "url": "https://www.yelp.com/biz/dominos-pizza-westerly?adjust_creative=WGZpLYsyc342REtByXO5Mw&utm_campaign=yelp_api_v3&utm_medium=api_v3_business_search&utm_source=WGZpLYsyc342REtByXO5Mw", "review_count": 10, "categories": [{"alias": "pizza", "title": "Pizza"}, {"alias": "chicken_wings", "title": "Chicken Wings"}, {"alias": "sandwiches", "title": "Sandwiches"}], "rating": 3.5, "coordinates": {"latitude": 41.37312, "longitude": -71.8207}, "transactions": [], "price": "$", "location": {"address1": "93 Granite St", "address2": "", "address3": "", "city": "Westerly", "zip_code": "02891", "country": "US", "state": "RI", "display_address": ["93 Granite St", "Westerly, RI 02891"]}, "phone": "+14015968850", "display_phone": "(401) 596-8850", "distance": 2466.757527252747}, {"id": "Zyfo5HuK1i1YZCv3U-GvwQ", "alias": "the-pizza-lady-pawcatuck", "name": "The Pizza Lady", "image_url": "https://s3-media1.fl.yelpcdn.com/bphoto/16ZFRx3lxJ54o0_eoPFdLw/o.jpg", "is_closed": false, "url": "https://www.yelp.com/biz/the-pizza-lady-pawcatuck?adjust_creative=WGZpLYsyc342REtByXO5Mw&utm_campaign=yelp_api_v3&utm_medium=api_v3_business_search&utm_source=WGZpLYsyc342REtByXO5Mw", "review_count": 37, "categories": [{"alias": "pizza", "title": "Pizza"}, {"alias": "newamerican", "title": "American (New)"}, {"alias": "italian", "title": "Italian"}], "rating": 4.0, "coordinates": {"latitude": 41.379569, "longitude": -71.836204}, "transactions": ["delivery"], "price": "$", "location": {"address1": "50 Liberty St", "address2": null, "address3": null, "city": "Pawcatuck", "zip_code": "06379", "country": "US", "state": "CT", "display_address": ["50 Liberty St", "Pawcatuck, CT 06379"]}, "phone": "+18605991113", "display_phone": "(860) 599-1113", "distance": 1169.7043815221884}, {"id": "kNOjDM10zI0RvNEmThKmrA", "alias": "pizzaplace-westerly-2", "name": "PizzaPlace", "image_url": "https://s3-media2.fl.yelpcdn.com/bphoto/S6ByHQFlY3wYj-Rj737mwA/o.jpg", "is_closed": false, "url": "https://www.yelp.com/biz/pizzaplace-westerly-2?adjust_creative=WGZpLYsyc342REtByXO5Mw&utm_campaign=yelp_api_v3&utm_medium=api_v3_business_search&utm_source=WGZpLYsyc342REtByXO5Mw", "review_count": 121, "categories": [{"alias": "pizza", "title": "Pizza"}], "rating": 4.0, "coordinates": {"latitude": 41.376953, "longitude": -71.830095}, "transactions": ["delivery"], "price": "$$", "location": {"address1": "43 Broad St", "address2": "", "address3": "", "city": "Westerly", "zip_code": "02891", "country": "US", "state": "RI", "display_address": ["43 Broad St", "Westerly, RI 02891"]}, "phone": "+14013481803", "display_phone": "(401) 348-1803", "distance": 1657.9973413671723}, {"id": "EDSQSFjQrrD56led7AvTpQ", "alias": "mr-pizza-westerly", "name": "Mr. Pizza", "image_url": "https://s3-media1.fl.yelpcdn.com/bphoto/_-FNJL51wQ8fLiKwEUaePQ/o.jpg", "is_closed": false, "url": "https://www.yelp.com/biz/mr-pizza-westerly?adjust_creative=WGZpLYsyc342REtByXO5Mw&utm_campaign=yelp_api_v3&utm_medium=api_v3_business_search&utm_source=WGZpLYsyc342REtByXO5Mw", "review_count": 18, "categories": [{"alias": "pizza", "title": "Pizza"}, {"alias": "salad", "title": "Salad"}], "rating": 4.5, "coordinates": {"latitude": 41.36617, "longitude": -71.83040319999999}, "transactions": ["delivery"], "location": {"address1": "49 Beach St", "address2": null, "address3": "", "city": "Westerly", "zip_code": "02891", "country": "US", "state": "RI", "display_address": ["49 Beach St", "Westerly, RI 02891"]}, "phone": "+14015967698", "display_phone": "(401) 596-7698", "distance": 2045.4936016659278}, {"id": "5QQdidOV8ye4eZksu3k45A", "alias": "nanas-bakery-and-pizza-westerly", "name": "Nana's Bakery & Pizza", "image_url": "https://s3-media4.fl.yelpcdn.com/bphoto/pq8-t7Qgg6r7sSqJQPYtSQ/o.jpg", "is_closed": false, "url": "https://www.yelp.com/biz/nanas-bakery-and-pizza-westerly?adjust_creative=WGZpLYsyc342REtByXO5Mw&utm_campaign=yelp_api_v3&utm_medium=api_v3_business_search&utm_source=WGZpLYsyc342REtByXO5Mw", "review_count": 7, "categories": [{"alias": "bakeries", "title": "Bakeries"}, {"alias": "pizza", "title": "Pizza"}], "rating": 5.0, "coordinates": {"latitude": 41.37971, "longitude": -71.82931}, "transactions": [], "location": {"address1": "82 High St Grd Flr", "address2": null, "address3": "", "city": "Westerly", "zip_code": "02891", "country": "US", "state": "RI", "display_address": ["82 High St Grd Flr", "Westerly, RI 02891"]}, "phone": "+14012133911", "display_phone": "(401) 213-3911", "distance": 1733.837857721562}, {"id": "zgNte7hf2UZsXpTBIoJkJQ", "alias": "casa-della-luce-westerly", "name": "Casa Della Luce", "image_url": "https://s3-media1.fl.yelpcdn.com/bphoto/oAIn8pPp5TzngE06YV1aVw/o.jpg", "is_closed": false, "url": "https://www.yelp.com/biz/casa-della-luce-westerly?adjust_creative=WGZpLYsyc342REtByXO5Mw&utm_campaign=yelp_api_v3&utm_medium=api_v3_business_search&utm_source=WGZpLYsyc342REtByXO5Mw", "review_count": 143, "categories": [{"alias": "italian", "title": "Italian"}, {"alias": "pizza", "title": "Pizza"}], "rating": 4.0, "coordinates": {"latitude": 41.360386, "longitude": -71.811803}, "transactions": ["delivery"], "price": "$$", "location": {"address1": "105 Franklin St", "address2": "", "address3": "", "city": "Westerly", "zip_code": "02891", "country": "US", "state": "RI", "display_address": ["105 Franklin St", "Westerly, RI 02891"]}, "phone": "+14016374575", "display_phone": "(401) 637-4575", "distance": 3694.928666290649}, {"id": "W8vuHMSeNwyUvRvSx86GDw", "alias": "main-street-pizza-pawcatuck", "name": "Main Street Pizza", "image_url": "https://s3-media2.fl.yelpcdn.com/bphoto/4SIz2T4iLJZmEB5ozAsuSg/o.jpg", "is_closed": false, "url": "https://www.yelp.com/biz/main-street-pizza-pawcatuck?adjust_creative=WGZpLYsyc342REtByXO5Mw&utm_campaign=yelp_api_v3&utm_medium=api_v3_business_search&utm_source=WGZpLYsyc342REtByXO5Mw", "review_count": 12, "categories": [{"alias": "pizza", "title": "Pizza"}, {"alias": "italian", "title": "Italian"}], "rating": 4.0, "coordinates": {"latitude": 41.369555, "longitude": -71.861156}, "transactions": [], "location": {"address1": "163 South Broad St", "address2": null, "address3": "", "city": "Pawcatuck", "zip_code": "06379", "country": "US", "state": "CT", "display_address": ["163 South Broad St", "Pawcatuck, CT 06379"]}, "phone": "+18604955720", "display_phone": "(860) 495-5720", "distance": 1281.4213452756787}, {"id": "F86I9r5zghCy-FDa2IkWnA", "alias": "christos-pizza-pawcatuck-2", "name": "Christo's Pizza", "image_url": "https://s3-media4.fl.yelpcdn.com/bphoto/PnLjkdhXhA0Bcg6umjU5Pg/o.jpg", "is_closed": false, "url": "https://www.yelp.com/biz/christos-pizza-pawcatuck-2?adjust_creative=WGZpLYsyc342REtByXO5Mw&utm_campaign=yelp_api_v3&utm_medium=api_v3_business_search&utm_source=WGZpLYsyc342REtByXO5Mw", "review_count": 11, "categories": [{"alias": "italian", "title": "Italian"}, {"alias": "pizza", "title": "Pizza"}], "rating": 3.0, "coordinates": {"latitude": 41.375489, "longitude": -71.847473}, "transactions": ["delivery"], "location": {"address1": "37 S Broad St", "address2": null, "address3": null, "city": "Pawcatuck", "zip_code": "06379", "country": "US", "state": "CT", "display_address": ["37 S Broad St", "Pawcatuck, CT 06379"]}, "phone": "+18605993000", "display_phone": "(860) 599-3000", "distance": 287.1918689956181}, {"id": "wYZ4vvAdsnPDK-XIKEAYlw", "alias": "stone-face-ovens-westerly", "name": "Stone Face Ovens", "image_url": "https://s3-media4.fl.yelpcdn.com/bphoto/GrcYdqTg45Ike6Ll18tiyA/o.jpg", "is_closed": false, "url": "https://www.yelp.com/biz/stone-face-ovens-westerly?adjust_creative=WGZpLYsyc342REtByXO5Mw&utm_campaign=yelp_api_v3&utm_medium=api_v3_business_search&utm_source=WGZpLYsyc342REtByXO5Mw", "review_count": 2, "categories": [{"alias": "pizza", "title": "Pizza"}, {"alias": "foodtrucks", "title": "Food Trucks"}], "rating": 4.5, "coordinates": {"latitude": 41.385328, "longitude": -71.832334}, "transactions": [], "location": {"address1": "65 Canal St", "address2": null, "address3": "", "city": "Westerly", "zip_code": "02891", "country": "US", "state": "RI", "display_address": ["65 Canal St", "Westerly, RI 02891"]}, "phone": "+14015951224", "display_phone": "(401) 595-1224", "distance": 1714.9017241922434}, {"id": "CLOJF8y35VDcUbSQI3rF0A", "alias": "pizza-vita-westerly", "name": "Pizza Vita", "image_url": "https://s3-media1.fl.yelpcdn.com/bphoto/TLQZb3TZq2Ttd6eTada3Og/o.jpg", "is_closed": false, "url": "https://www.yelp.com/biz/pizza-vita-westerly?adjust_creative=WGZpLYsyc342REtByXO5Mw&utm_campaign=yelp_api_v3&utm_medium=api_v3_business_search&utm_source=WGZpLYsyc342REtByXO5Mw", "review_count": 28, "categories": [{"alias": "pizza", "title": "Pizza"}, {"alias": "salad", "title": "Salad"}, {"alias": "wraps", "title": "Wraps"}], "rating": 4.0, "coordinates": {"latitude": 41.364714, "longitude": -71.830466}, "transactions": ["delivery", "pickup"], "price": "$$", "location": {"address1": "55 Beach St", "address2": "Ste 12", "address3": null, "city": "Westerly", "zip_code": "02891", "country": "US", "state": "RI", "display_address": ["55 Beach St", "Ste 12", "Westerly, RI 02891"]}, "phone": "+14013487036", "display_phone": "(401) 348-7036", "distance": 2143.543493754896}, {"id": "UbImQIb4N-RgPqTSjq7VMA", "alias": "longo-pizzeria-westerly", "name": "Longo Pizzeria", "image_url": "https://s3-media3.fl.yelpcdn.com/bphoto/HMFdWGzTN2onQ87X2ORn5w/o.jpg", "is_closed": false, "url": "https://www.yelp.com/biz/longo-pizzeria-westerly?adjust_creative=WGZpLYsyc342REtByXO5Mw&utm_campaign=yelp_api_v3&utm_medium=api_v3_business_search&utm_source=WGZpLYsyc342REtByXO5Mw", "review_count": 9, "categories": [{"alias": "pizza", "title": "Pizza"}, {"alias": "sportsbars", "title": "Sports Bars"}], "rating": 4.0, "coordinates": {"latitude": 41.379778, "longitude": -71.829163}, "transactions": [], "price": "$$", "location": {"address1": "66-76 High St", "address2": "", "address3": "", "city": "Westerly", "zip_code": "02891", "country": "US", "state": "RI", "display_address": ["66-76 High St", "Westerly, RI 02891"]}, "phone": "", "display_phone": "", "distance": 1751.5917678027827}, {"id": "qpbOpYQmmijjM-tZl-l4ow", "alias": "providence-coal-fired-pizza-westerly", "name": "Providence Coal Fired Pizza", "image_url": "https://s3-media2.fl.yelpcdn.com/bphoto/MB34PCrx5LLk681fYQku1Q/o.jpg", "is_closed": false, "url": "https://www.yelp.com/biz/providence-coal-fired-pizza-westerly?adjust_creative=WGZpLYsyc342REtByXO5Mw&utm_campaign=yelp_api_v3&utm_medium=api_v3_business_search&utm_source=WGZpLYsyc342REtByXO5Mw", "review_count": 61, "categories": [{"alias": "pizza", "title": "Pizza"}, {"alias": "italian", "title": "Italian"}, {"alias": "sandwiches", "title": "Sandwiches"}], "rating": 3.5, "coordinates": {"latitude": 41.3681255687374, "longitude": -71.8187813088298}, "transactions": ["delivery", "pickup"], "price": "$$", "location": {"address1": "162 Granite St", "address2": "", "address3": null, "city": "Westerly", "zip_code": "02891", "country": "US", "state": "RI", "display_address": ["162 Granite St", "Westerly, RI 02891"]}, "phone": "+14015961842", "display_phone": "(401) 596-1842", "distance": 2790.6538907009744}, {"id": "RVUt9RkY4IbNhD2Mq-GaPw", "alias": "limiros-pizza-and-catering-westerly", "name": "Limiro's Pizza & Catering", "image_url": "https://s3-media1.fl.yelpcdn.com/bphoto/ND-fmgEvfvWyM9JKGp_zNA/o.jpg", "is_closed": false, "url": "https://www.yelp.com/biz/limiros-pizza-and-catering-westerly?adjust_creative=WGZpLYsyc342REtByXO5Mw&utm_campaign=yelp_api_v3&utm_medium=api_v3_business_search&utm_source=WGZpLYsyc342REtByXO5Mw", "review_count": 6, "categories": [{"alias": "pizza", "title": "Pizza"}, {"alias": "salad", "title": "Salad"}, {"alias": "wraps", "title": "Wraps"}], "rating": 5.0, "coordinates": {"latitude": 41.38701915524335, "longitude": -71.82564479999999}, "transactions": ["delivery", "pickup"], "price": "$", "location": {"address1": "24 Pierce St", "address2": null, "address3": null, "city": "Westerly", "zip_code": "02891", "country": "US", "state": "RI", "display_address": ["24 Pierce St", "Westerly, RI 02891"]}, "phone": "+14013155503", "display_phone": "(401) 315-5503", "distance": 2292.9942032939894}, {"id": "muJEa-bjMNA5dtNmpQOXQw", "alias": "vetranos-restaurant-westerly", "name": "Vetrano's Restaurant", "image_url": "https://s3-media2.fl.yelpcdn.com/bphoto/m7ydGmwC-XGXbhPGXCUYSQ/o.jpg", "is_closed": false, "url": "https://www.yelp.com/biz/vetranos-restaurant-westerly?adjust_creative=WGZpLYsyc342REtByXO5Mw&utm_campaign=yelp_api_v3&utm_medium=api_v3_business_search&utm_source=WGZpLYsyc342REtByXO5Mw", "review_count": 119, "categories": [{"alias": "italian", "title": "Italian"}, {"alias": "pizza", "title": "Pizza"}, {"alias": "bars", "title": "Bars"}], "rating": 3.5, "coordinates": {"latitude": 41.370545, "longitude": -71.819344}, "transactions": ["delivery"], "price": "$$", "location": {"address1": "130 Granite St", "address2": "Ste F", "address3": "", "city": "Westerly", "zip_code": "02891", "country": "US", "state": "RI", "display_address": ["130 Granite St", "Ste F", "Westerly, RI 02891"]}, "phone": "+14013485050", "display_phone": "(401) 348-5050", "distance": 2658.5903631918372}, {"id": "1qM3bO2zfae-3axjK9wo2w", "alias": "midway-pizza-house-westerly", "name": "Midway Pizza House", "image_url": "https://s3-media2.fl.yelpcdn.com/bphoto/rotbIhYGxcgNThVTPIRxYw/o.jpg", "is_closed": false, "url": "https://www.yelp.com/biz/midway-pizza-house-westerly?adjust_creative=WGZpLYsyc342REtByXO5Mw&utm_campaign=yelp_api_v3&utm_medium=api_v3_business_search&utm_source=WGZpLYsyc342REtByXO5Mw", "review_count": 22, "categories": [{"alias": "pizza", "title": "Pizza"}], "rating": 3.0, "coordinates": {"latitude": 41.3738145, "longitude": -71.8310995}, "transactions": ["delivery"], "price": "$", "location": {"address1": "125 Main St", "address2": "", "address3": "", "city": "Westerly", "zip_code": "02891", "country": "US", "state": "RI", "display_address": ["125 Main St", "Westerly, RI 02891"]}, "phone": "+14015961357", "display_phone": "(401) 596-1357", "distance": 1586.6846726188894}, {"id": "ptDQh4fgys1UXXdpnYNTGQ", "alias": "marios-northend-pizzaria-westerly", "name": "Mario's Northend Pizzaria", "image_url": "https://s3-media3.fl.yelpcdn.com/bphoto/gIeYKhF_kF4nxqu6srG9lA/o.jpg", "is_closed": false, "url": "https://www.yelp.com/biz/marios-northend-pizzaria-westerly?adjust_creative=WGZpLYsyc342REtByXO5Mw&utm_campaign=yelp_api_v3&utm_medium=api_v3_business_search&utm_source=WGZpLYsyc342REtByXO5Mw", "review_count": 23, "categories": [{"alias": "pizza", "title": "Pizza"}, {"alias": "italian", "title": "Italian"}], "rating": 3.5, "coordinates": {"latitude": 41.38323, "longitude": -71.82628}, "transactions": ["delivery"], "price": "$$", "location": {"address1": "61 Friendship St", "address2": "", "address3": "", "city": "Westerly", "zip_code": "02891", "country": "US", "state": "RI", "display_address": ["61 Friendship St", "Westerly, RI 02891"]}, "phone": "+14015963883", "display_phone": "(401) 596-3883", "distance": 2056.917062973759}, {"id": "K-J1GXPvYtLMZDhT97eQBg", "alias": "longo-ristorante-and-pizzeria-westerly", "name": "Longo Ristorante & Pizzeria", "image_url": "https://s3-media2.fl.yelpcdn.com/bphoto/taf49q6moif8MyJrAxkaCg/o.jpg", "is_closed": false, "url": "https://www.yelp.com/biz/longo-ristorante-and-pizzeria-westerly?adjust_creative=WGZpLYsyc342REtByXO5Mw&utm_campaign=yelp_api_v3&utm_medium=api_v3_business_search&utm_source=WGZpLYsyc342REtByXO5Mw", "review_count": 56, "categories": [{"alias": "italian", "title": "Italian"}, {"alias": "bars", "title": "Bars"}], "rating": 4.0, "coordinates": {"latitude": 41.379771, "longitude": -71.829123}, "transactions": ["delivery"], "price": "$$", "location": {"address1": "84 High St", "address2": "", "address3": "", "city": "Westerly", "zip_code": "02891", "country": "US", "state": "RI", "display_address": ["84 High St", "Westerly, RI 02891"]}, "phone": "+14013150881", "display_phone": "(401) 315-0881", "distance": 1751.562612151568}, {"id": "HB6DPAR6s7QA0a0ZDFk8Fw", "alias": "ritaccos-market-westerly", "name": "Ritacco's Market", "image_url": "https://s3-media3.fl.yelpcdn.com/bphoto/Psznanfc3KhVXeueRM4ilw/o.jpg", "is_closed": false, "url": "https://www.yelp.com/biz/ritaccos-market-westerly?adjust_creative=WGZpLYsyc342REtByXO5Mw&utm_campaign=yelp_api_v3&utm_medium=api_v3_business_search&utm_source=WGZpLYsyc342REtByXO5Mw", "review_count": 7, "categories": [{"alias": "grocery", "title": "Grocery"}, {"alias": "italian", "title": "Italian"}, {"alias": "pizza", "title": "Pizza"}], "rating": 5.0, "coordinates": {"latitude": 41.383861, "longitude": -71.815867}, "transactions": ["delivery"], "price": "$$", "location": {"address1": "84 Oak St", "address2": "", "address3": "", "city": "Westerly", "zip_code": "02891", "country": "US", "state": "RI", "display_address": ["84 Oak St", "Westerly, RI 02891"]}, "phone": "+14015961835", "display_phone": "(401) 596-1835", "distance": 2932.566994034299}, {"id": "_iYvpGfCwqMa3iMMIypT1Q", "alias": "supreme-cheese-pizzeria-and-ristorante-westerly-2", "name": "Supreme Cheese Pizzeria & Ristorante", "image_url": "https://s3-media4.fl.yelpcdn.com/bphoto/22yh-89rfTe7kZ_7s43N7Q/o.jpg", "is_closed": false, "url": "https://www.yelp.com/biz/supreme-cheese-pizzeria-and-ristorante-westerly-2?adjust_creative=WGZpLYsyc342REtByXO5Mw&utm_campaign=yelp_api_v3&utm_medium=api_v3_business_search&utm_source=WGZpLYsyc342REtByXO5Mw", "review_count": 44, "categories": [{"alias": "pizza", "title": "Pizza"}, {"alias": "newamerican", "title": "American (New)"}, {"alias": "burgers", "title": "Burgers"}], "rating": 3.5, "coordinates": {"latitude": 41.36834, "longitude": -71.81974}, "transactions": ["delivery"], "price": "$$", "location": {"address1": "157 Granite St", "address2": "", "address3": "", "city": "Westerly", "zip_code": "02891", "country": "US", "state": "RI", "display_address": ["157 Granite St", "Westerly, RI 02891"]}, "phone": "+14015961001", "display_phone": "(401) 596-1001", "distance": 2702.987120358425}, {"id": "WIW3FD4EJDFFe3Qkfde6KQ", "alias": "hilltop-cafe-westerly-3", "name": "Hilltop Cafe", "image_url": "https://s3-media4.fl.yelpcdn.com/bphoto/Ph-g-atXmAeaQcHKUolw4w/o.jpg", "is_closed": false, "url": "https://www.yelp.com/biz/hilltop-cafe-westerly-3?adjust_creative=WGZpLYsyc342REtByXO5Mw&utm_campaign=yelp_api_v3&utm_medium=api_v3_business_search&utm_source=WGZpLYsyc342REtByXO5Mw", "review_count": 16, "categories": [{"alias": "pizza", "title": "Pizza"}, {"alias": "salad", "title": "Salad"}], "rating": 3.5, "coordinates": {"latitude": 41.38136394732243, "longitude": -71.83181869673648}, "transactions": ["delivery"], "price": "$$", "location": {"address1": "23 Canal St", "address2": "", "address3": null, "city": "Westerly", "zip_code": "02891", "country": "US", "state": "RI", "display_address": ["23 Canal St", "Westerly, RI 02891"]}, "phone": "+18309978922", "display_phone": "(830) 997-8922", "distance": 1574.1156335107753}, {"id": "Lx6EeL5mwVtNdBf9uUEVQA", "alias": "dominos-pizza-westerly", "name": "Domino's Pizza", "image_url": "https://s3-media2.fl.yelpcdn.com/bphoto/2UoGpRc9envmJ5vjsr-2ew/o.jpg", "is_closed": false, "url": "https://www.yelp.com/biz/dominos-pizza-westerly?adjust_creative=WGZpLYsyc342REtByXO5Mw&utm_campaign=yelp_api_v3&utm_medium=api_v3_business_search&utm_source=WGZpLYsyc342REtByXO5Mw", "review_count": 10, "categories": [{"alias": "pizza", "title": "Pizza"}, {"alias": "chicken_wings", "title": "Chicken Wings"}, {"alias": "sandwiches", "title": "Sandwiches"}], "rating": 3.5, "coordinates": {"latitude": 41.37312, "longitude": -71.8207}, "transactions": [], "price": "$", "location": {"address1": "93 Granite St", "address2": "", "address3": "", "city": "Westerly", "zip_code": "02891", "country": "US", "state": "RI", "display_address": ["93 Granite St", "Westerly, RI 02891"]}, "phone": "+14015968850", "display_phone": "(401) 596-8850", "distance": 2466.757527252747}]